[
  {
    "id": 0,
    "name": "Agricultural Engineering Bldg",
    "latitude": "-72.527971",
    "longitude": "42.394359",
    "address": "250 NATURAL RESOURCES RD, AMHERST, MA 01003"
  },
  {
    "id": 1,
    "name": "Army ROTC Bldg",
    "latitude": "-72.53096",
    "longitude": "42.385207",
    "address": "101 COMMONWEALTH AVE, AMHERST, MA 01003"
  },
  {
    "id": 2,
    "name": "Arnold House",
    "latitude": "-72.52634",
    "longitude": "42.394078",
    "address": "715 N PLEASANT, AMHERST, MA 01003"
  },
  {
    "id": 3,
    "name": "(Studio) Arts Building",
    "latitude": "-72.524083",
    "longitude": "42.39561",
    "address": "110 THATCHER RD, AMHERST, MA 01003"
  },
  {
    "id": 4,
    "name": "Auxilary Services Warehouse",
    "latitude": "-72.535342",
    "longitude": "42.393771",
    "address": "31 COLD STORAGE DR, AMHERST, MA 01003"
  },
  {
    "id": 5,
    "name": "Baker House (offices)",
    "latitude": "-72.519304",
    "longitude": "42.388893",
    "address": "160 CLARK HILL RD OFC, AMHERST, MA 01003"
  },
  {
    "id": 6,
    "name": "Bartlett Hall",
    "latitude": "-72.530162",
    "longitude": "42.390441",
    "address": "130 HICKS WAY, AMHERST, MA 01003"
  },
  {
    "id": 7,
    "name": "Berkshire House",
    "latitude": "-72.527341",
    "longitude": "42.385526",
    "address": "121 COUNTY CIR, AMHERST, MA 01003"
  },
  {
    "id": 8,
    "name": "Berkshire Dining Common",
    "latitude": "-72.530219",
    "longitude": "42.382692",
    "address": "121 SOUTHWEST CIR, AMHERST, MA 01003"
  },
  {
    "id": 9,
    "name": "Blaisdell",
    "latitude": "-72.5317",
    "longitude": "42.3899",
    "address": "113 GRINNELL WAY, AMHERST, MA 01003"
  },
  {
    "id": 10,
    "name": "Bowditch Hall",
    "latitude": "-72.528281",
    "longitude": "42.394465",
    "address": "201 NATURAL RESOURCES RD, AMHERST, MA 01003"
  },
  {
    "id": 11,
    "name": "Bowditch Lodge",
    "latitude": "-72.534351",
    "longitude": "42.381307",
    "address": "31 CLUBHOUSE DR, AMHERST, MA 01003"
  },
  {
    "id": 12,
    "name": "Boyden",
    "latitude": "-72.532009",
    "longitude": "42.38821",
    "address": "131 COMMONWEALTH AVE, AMHERST, MA 01003"
  },
  {
    "id": 13,
    "name": "Brett (Offices)",
    "latitude": "-72.521006",
    "longitude": "42.388897",
    "address": "151 INFIRMARY WAY OFC, AMHERST, MA 01003"
  },
  {
    "id": 14,
    "name": "Campus Center",
    "latitude": "-72.532499",
    "longitude": "42.39033",
    "address": "1 CAMPUS CENTER WAY, AMHERST, MA 01003"
  },
  {
    "id": 15,
    "name": "Cance (offices)",
    "latitude": "-72.529198",
    "longitude": "42.381031",
    "address": "191 FEARING OFC, AMHERST, MA 01003"
  },
  {
    "id": 16,
    "name": "Central Heating Plant",
    "latitude": "-72.537219",
    "longitude": "42.38765",
    "address": "200 MULLINS WAY, AMHERST, MA 01003"
  },
  {
    "id": 17,
    "name": "Chancellors House",
    "latitude": "-72.5212",
    "longitude": "42.391113",
    "address": "150 CHANCELLORS DR, AMHERST, MA 01003"
  },
  {
    "id": 18,
    "name": "Chenoweth Laboratory",
    "latitude": "-72.529978",
    "longitude": "42.391464",
    "address": "100 HOLDSWORTH WAY, AMHERST, MA 01003"
  },
  {
    "id": 19,
    "name": "Clark Hall",
    "latitude": "-72.523299",
    "longitude": "42.388858",
    "address": "251 STOCKBRIDGE RD, AMHERST, MA 01003"
  },
  {
    "id": 20,
    "name": "(William S.) Clark International Center (Hills)",
    "latitude": "-72.524036",
    "longitude": "42.395571",
    "address": "111 THATCHER RD OFC 3, AMHERST, MA 01003"
  },
  {
    "id": 21,
    "name": "Commonwealth Honors College",
    "latitude": "-72.532879",
    "longitude": "42.390313",
    "address": "157 COMMONWEALTH AVE, AMHERST, MA 01003"
  },
  {
    "id": 22,
    "name": "Communication Disorders",
    "latitude": "-72.520637",
    "longitude": "42.383146",
    "address": "358 N PLEASANT ST, AMHERST, MA 01003"
  },
  {
    "id": 23,
    "name": "Computer Science Bldg",
    "latitude": "-72.532089",
    "longitude": "42.39553",
    "address": "140 GOVERNORS DR, AMHERST, MA 01003"
  },
  {
    "id": 24,
    "name": "Condensate Storage Building",
    "latitude": "-72.532301",
    "longitude": "42.390403",
    "address": "30 CAMPUS CENTER SERVICE RD, AMHERST, MA 01003"
  },
  {
    "id": 25,
    "name": "Conte Polymer Center",
    "latitude": "-72.529569",
    "longitude": "42.39527",
    "address": "120 GOVERNORS DR, AMHERST, MA 01003"
  },
  {
    "id": 26,
    "name": "Continuing Education",
    "latitude": "-72.519422",
    "longitude": "42.403108",
    "address": "100 VENTURE WAY, SUITE 201, HADLEY MA, AMHERST, MA 01003"
  },
  {
    "id": 27,
    "name": "Curry Hicks",
    "latitude": "-72.529749",
    "longitude": "42.390661",
    "address": "100 HICKS WAY, AMHERST, MA 01003"
  },
  {
    "id": 28,
    "name": "Dickinson Hall",
    "latitude": "-72.530418",
    "longitude": "42.390215",
    "address": "155 HICKS WAY, AMHERST, MA 01003"
  },
  {
    "id": 29,
    "name": "Draper Hall",
    "latitude": "-72.532233",
    "longitude": "42.390428",
    "address": "40 CAMPUS CENTER WAY, AMHERST, MA 01003"
  },
  {
    "id": 30,
    "name": "East Experiment Station",
    "latitude": "-72.525553",
    "longitude": "42.39239",
    "address": "671 N PLEASANT ST, AMHERST, MA 01003"
  },
  {
    "id": 31,
    "name": "Engineering Laboratory",
    "latitude": "-72.532381",
    "longitude": "42.395479",
    "address": "160 GOVERNORS DR, AMHERST, MA 01003"
  },
  {
    "id": 32,
    "name": "Engineering Laboratory II (E Lab II)",
    "latitude": "-72.5307",
    "longitude": "42.3897",
    "address": "101 NORTH SERVICE RD, AMHERST, MA 01003"
  },
  {
    "id": 33,
    "name": "Faculty Club",
    "latitude": "-72.523357",
    "longitude": "42.3891",
    "address": "243 STOCKBRIDGE RD, AMHERST, MA 01003"
  },
  {
    "id": 34,
    "name": "Farley Lodge",
    "latitude": "-72.53446",
    "longitude": "42.381215",
    "address": "41 CLUBHOUSE DR, AMHERST, MA 01003"
  },
  {
    "id": 35,
    "name": "Fernald Hall",
    "latitude": "-72.523054",
    "longitude": "42.388306",
    "address": "270 STOCKBRIDGE RD, AMHERST, MA 01003"
  },
  {
    "id": 36,
    "name": "Fine Arts Center (East)",
    "latitude": "-72.526417",
    "longitude": "42.38711",
    "address": "151 PRESIDENTS DR OFC 1, AMHERST, MA 01003"
  },
  {
    "id": 37,
    "name": "Fine Arts Center (West)",
    "latitude": "-72.526417",
    "longitude": "42.38711",
    "address": "151 PRESIDENTS DR OFC 2, AMHERST, MA 01003"
  },
  {
    "id": 38,
    "name": "Flint Laboratory",
    "latitude": "-72.531879",
    "longitude": "42.390531",
    "address": "90 CAMPUS CENTER WAY, AMHERST, MA 01003"
  },
  {
    "id": 39,
    "name": "Franklin Dining common ",
    "latitude": "-72.523194",
    "longitude": "42.388595",
    "address": "260 STOCKBRIDGE RD, AMHERST, MA 01003"
  },
  {
    "id": 40,
    "name": "French Hall",
    "latitude": "-72.52338",
    "longitude": "42.389497",
    "address": "230 STOCKBRIDGE RD, AMHERST, MA 01003"
  },
  {
    "id": 41,
    "name": "Furcolo Hall",
    "latitude": "-72.527937",
    "longitude": "42.397461",
    "address": "813 N PLEASANT ST, AMHERST, MA 01003"
  },
  {
    "id": 42,
    "name": "Goessmann Laboratory",
    "latitude": "-72.525727",
    "longitude": "42.392928",
    "address": "686 N PLEASANT ST, AMHERST, MA 01003"
  },
  {
    "id": 43,
    "name": "Goodell Bldg",
    "latitude": "-72.530299",
    "longitude": "42.390367",
    "address": "140 HICKS WAY, AMHERST, MA 01003"
  },
  {
    "id": 44,
    "name": "Goodell Bldg (Graduate School)",
    "latitude": "-72.530299",
    "longitude": "42.390367",
    "address": "140 HICKS WAY OFC 1, AMHERST, MA 01003"
  },
  {
    "id": 45,
    "name": "Goodell Bldg (Procurement)",
    "latitude": "-72.530299",
    "longitude": "42.390367",
    "address": "140 HICKS WAY OFC 2, AMHERST, MA 01003"
  },
  {
    "id": 46,
    "name": "Gordon Hall",
    "latitude": "-72.52166",
    "longitude": "42.385",
    "address": "418 N PLEASANT ST, AMHERST, MA 01002"
  },
  {
    "id": 47,
    "name": "Gunness Lab",
    "latitude": "-72.528691",
    "longitude": "42.394704",
    "address": "121 NATURAL RESOURCES RD, AMHERST, MA 01003"
  },
  {
    "id": 48,
    "name": "Hampden Dining Common",
    "latitude": "-72.530237",
    "longitude": "42.382891",
    "address": "131 SOUTHWEST CIR , AMHERST, MA 01003"
  },
  {
    "id": 49,
    "name": "Hampshire Dining Common",
    "latitude": "-72.53031",
    "longitude": "42.383073",
    "address": "141 SOUTHWEST CIR, AMHERST, MA 01003"
  },
  {
    "id": 50,
    "name": "Hampshire House",
    "latitude": "-72.52755",
    "longitude": "42.385541",
    "address": "131 COUNTY CIR, AMHERST, MA 01003"
  },
  {
    "id": 51,
    "name": "Hasbrouck Laboratory",
    "latitude": "-72.525495",
    "longitude": "42.392205",
    "address": "666 N PLEASANT ST, AMHERST, MA 01003"
  },
  {
    "id": 52,
    "name": "Hatch Laboratory",
    "latitude": "-72.530225",
    "longitude": "42.392851",
    "address": "140 HOLDSWORTH WAY, AMHERST, MA 01003"
  },
  {
    "id": 53,
    "name": "Health Center",
    "latitude": "-72.521007",
    "longitude": "42.388908",
    "address": "150 INFIRMARY WAY, AMHERST, MA 01003"
  },
  {
    "id": 54,
    "name": "Herter Hall",
    "latitude": "-72.526306",
    "longitude": "42.386798",
    "address": "161 PRESIDENTS DR, AMHERST, MA 01003"
  },
  {
    "id": 55,
    "name": "Hillel House",
    "latitude": "-72.521169",
    "longitude": "42.384103",
    "address": "388 NO PLEASANT ST #15, AMHERST, MA 01002"
  },
  {
    "id": 56,
    "name": "Hills North",
    "latitude": "-72.524036",
    "longitude": "42.395571",
    "address": "111 THATCHER RD OFC 1, AMHERST, MA 01003"
  },
  {
    "id": 57,
    "name": "Hills South",
    "latitude": "-72.524036",
    "longitude": "42.395571",
    "address": "111 THATCHER RD OFC 2, AMHERST, MA 01003"
  },
  {
    "id": 58,
    "name": "Holdsworth Hall",
    "latitude": "-72.530677",
    "longitude": "42.39347",
    "address": "160 HOLDSWORTH WAY, AMHERST, MA 01003"
  },
  {
    "id": 59,
    "name": "Isenberg School of Management",
    "latitude": "-72.525484",
    "longitude": "42.386486",
    "address": "121 PRESIDENTS DR, AMHERST, MA 01003"
  },
  {
    "id": 60,
    "name": "Integrated Science Building",
    "latitude": "-72.525444",
    "longitude": "42.39202",
    "address": "661 N PLEASANT ST, AMHERST, MA 01003"
  },
  {
    "id": 61,
    "name": "John Quincy Adams Tower",
    "latitude": "-72.528379",
    "longitude": "42.38125",
    "address": "171 FEARING ST OFC, AMHERST, MA 01003"
  },
  {
    "id": 62,
    "name": "Johnson House (offices)",
    "latitude": "-72.52365",
    "longitude": "42.3936",
    "address": "380 THATCHER RD OFC, AMHERST, MA 01003"
  },
  {
    "id": 63,
    "name": "Knowles Engineering Bldg",
    "latitude": "-72.530434",
    "longitude": "42.393208",
    "address": "151 HOLDSWORTH WAY, AMHERST, MA 01003"
  },
  {
    "id": 64,
    "name": "Lederle Grad Research Ctr (LGRC lowrise)",
    "latitude": "-72.526689",
    "longitude": "42.395072",
    "address": "740 N PLEASANT ST, AMHERST, MA 01003"
  },
  {
    "id": 65,
    "name": "Lederle Grad Research Tower (LGRT)",
    "latitude": "-72.526225",
    "longitude": "42.393883",
    "address": "710 N PLEASANT ST, AMHERST, MA 01003"
  },
  {
    "id": 66,
    "name": "Life Sciences Laboratories",
    "latitude": "-72.52365",
    "longitude": "42.3936",
    "address": "240 THATCHER RD, AMHERST, MA 01003"
  },
  {
    "id": 67,
    "name": "Machmer Hall",
    "latitude": "-72.530878",
    "longitude": "42.389532",
    "address": "240 HICKS WAY, AMHERST, MA 01003"
  },
  {
    "id": 68,
    "name": "Marcus Hall",
    "latitude": "-72.528719",
    "longitude": "42.39481",
    "address": "100 NATURAL RESOURCES RD, AMHERST, MA 01003"
  },
  {
    "id": 69,
    "name": "Marston Hall",
    "latitude": "-72.52868",
    "longitude": "42.394658",
    "address": "130 NATURAL RESOURCES RD, AMHERST, MA 01003"
  },
  {
    "id": 70,
    "name": "Mass Ventures",
    "latitude": "-72.519422",
    "longitude": "42.403108",
    "address": "100 VENTURE WAY (HADLEY, MA), AMHERST, MA 01003"
  },
  {
    "id": 71,
    "name": "Mather Building",
    "latitude": "-72.511359",
    "longitude": "42.39479",
    "address": "37 MATHER DR, AMHERST, MA 01003"
  },
  {
    "id": 72,
    "name": "Memorial Hall",
    "latitude": "-72.530217",
    "longitude": "42.390411",
    "address": "134 HICKS WAY, AMHERST, MA 01003"
  },
  {
    "id": 73,
    "name": "Middlesex House",
    "latitude": "-72.527259",
    "longitude": "42.385353",
    "address": "111 COUNTY CIR, AMHERST, MA 01003"
  },
  {
    "id": 74,
    "name": "Montague House",
    "latitude": "-72.527832",
    "longitude": "42.397181",
    "address": "809 N PLEASANT ST, AMHERST, MA 01003"
  },
  {
    "id": 75,
    "name": "Morrill 1",
    "latitude": "-72.525235",
    "longitude": "42.391122",
    "address": "637 N PLEASANT ST, AMHERST, MA 01003"
  },
  {
    "id": 76,
    "name": "Morrill 2",
    "latitude": "-72.525166",
    "longitude": "42.390746",
    "address": "627 N PLEASANT ST, AMHERST, MA 01003"
  },
  {
    "id": 77,
    "name": "Morrill 3",
    "latitude": "-72.525055",
    "longitude": "42.390144",
    "address": "611 N PLEASANT ST, AMHERST, MA 01003"
  },
  {
    "id": 78,
    "name": "Morrill 4",
    "latitude": "-72.52525",
    "longitude": "42.391197",
    "address": "639 N PLEASANT ST, AMHERST, MA 01003"
  },
  {
    "id": 79,
    "name": "Mullins Center",
    "latitude": "-72.533928",
    "longitude": "42.392653",
    "address": "200 COMMONWEALTH AVE, AMHERST, MA 01003"
  },
  {
    "id": 80,
    "name": "Munson Hall",
    "latitude": "-72.529763",
    "longitude": "42.390654",
    "address": "101 HICKS WAY, AMHERST, MA 01003"
  },
  {
    "id": 81,
    "name": "Nelson House",
    "latitude": "-72.515463",
    "longitude": "42.395844",
    "address": "513 EAST PLEASANT ST, AMHERST, MA 01003"
  },
  {
    "id": 82,
    "name": "Nelson House II",
    "latitude": "-72.515499",
    "longitude": "42.395617",
    "address": "505 EAST PLEASANT ST, AMHERST, MA 01003"
  },
  {
    "id": 83,
    "name": "New Africa House",
    "latitude": "-72.520947",
    "longitude": "42.38858",
    "address": "180 INFIRMARY WAY, AMHERST, MA 01003"
  },
  {
    "id": 84,
    "name": "Old Chapel",
    "latitude": "-72.530354",
    "longitude": "42.390338",
    "address": "144 HICKS WAY, AMHERST, MA 01003"
  },
  {
    "id": 85,
    "name": "Paige Laboratory",
    "latitude": "-72.530707",
    "longitude": "42.393498",
    "address": "161 HOLDSWORTH WAY, AMHERST, MA 01003"
  },
  {
    "id": 86,
    "name": "Parking Office Trailer",
    "latitude": "-72.536308",
    "longitude": "42.392388",
    "address": "51 FORESTRY WAY, AMHERST, MA 01003"
  },
  {
    "id": 87,
    "name": "Parks Marching Band Building",
    "latitude": "-72.5317",
    "longitude": "42.3899",
    "address": "110 Grinnell Way, AMHERST, MA 01003"
  },
  {
    "id": 88,
    "name": "Photo Center",
    "latitude": "-72.53081",
    "longitude": "42.389848",
    "address": "211 HICKS WAY, AMHERST, MA 01003"
  },
  {
    "id": 89,
    "name": "Physical Plant",
    "latitude": "-72.530255",
    "longitude": "42.391389",
    "address": "360 CAMPUS CENTER WAY, AMHERST, MA 01003"
  },
  {
    "id": 90,
    "name": "Police Station",
    "latitude": "-72.51566",
    "longitude": "42.398346",
    "address": "585 EAST PLEASANT ST, AMHERST, MA 01003"
  },
  {
    "id": 91,
    "name": "Recreation Center",
    "latitude": "-72.532979",
    "longitude": "42.390535",
    "address": "161 COMMONWEALTH AVE, AMHERST, MA 01003"
  },
  {
    "id": 92,
    "name": "Research Admininstration",
    "latitude": "-72.52064",
    "longitude": "42.38721",
    "address": "70 BUTTERFIELD TERR, AMHERST, MA 01003"
  },
  {
    "id": 93,
    "name": "Renaissance Center",
    "latitude": "-72.515466",
    "longitude": "42.401895",
    "address": "650 E PLEASANT ST, AMHERST, MA 01001"
  },
  {
    "id": 94,
    "name": "Robsham Visitor's Center",
    "latitude": "-72.522549",
    "longitude": "42.385831",
    "address": "300 MASSACHUSETTS AVE, AMHERST, MA 01003"
  },
  {
    "id": 95,
    "name": "Shade Trees Laboratory",
    "latitude": "-72.523346",
    "longitude": "42.389039",
    "address": "245 STOCKBRIDGE RD, AMHERST, MA 01003"
  },
  {
    "id": 96,
    "name": "Skinner Hall",
    "latitude": "-72.525342",
    "longitude": "42.391647",
    "address": "651 N PLEASANT ST, AMHERST, MA 01003"
  },
  {
    "id": 97,
    "name": "Slobody Bldg",
    "latitude": "-72.53326",
    "longitude": "42.37031",
    "address": "101 UNIVERSITY DR SUITE B, AMHERST, MA 01002"
  },
  {
    "id": 98,
    "name": "Slobody Bldg",
    "latitude": "-72.53326",
    "longitude": "42.37031",
    "address": "101 UNIVERSITY DR SUITE C, AMHERST, MA 01002"
  },
  {
    "id": 99,
    "name": "South College",
    "latitude": "-72.530409",
    "longitude": "42.390277",
    "address": "150 HICKS WAY, AMHERST, MA 01003"
  },
  {
    "id": 100,
    "name": "Stonewall Center",
    "latitude": "-72.528288",
    "longitude": "42.382693",
    "address": "256 SUNSET AVE OFC, AMHERST, MA 01003"
  },
  {
    "id": 101,
    "name": "Stockbridge Hall",
    "latitude": "-72.531951",
    "longitude": "42.390513",
    "address": "80 CAMPUS CENTER WAY, AMHERST, MA 01003"
  },
  {
    "id": 102,
    "name": "Student Union",
    "latitude": "-72.532226",
    "longitude": "42.390431",
    "address": "41 CAMPUS CENTER WAY, AMHERST, MA 01003"
  },
  {
    "id": 103,
    "name": "Thompson Hall",
    "latitude": "-72.530626",
    "longitude": "42.389868",
    "address": "200 HICKS WAY, AMHERST, MA 01003"
  },
  {
    "id": 104,
    "name": "Thoreau House (offices)",
    "latitude": "-72.52961",
    "longitude": "42.384851",
    "address": "640 MASSACHUSETTS AVE OFC, AMHERST, MA 01003"
  },
  {
    "id": 105,
    "name": "Tillson House",
    "latitude": "-72.514633",
    "longitude": "42.398462",
    "address": "23 TILLSON FARM RD, AMHERST, MA 01003"
  },
  {
    "id": 106,
    "name": "Tillson Farm",
    "latitude": "-72.51259",
    "longitude": "42.39886",
    "address": "151 TILLSON FARM RD, AMHERST, MA 01003"
  },
  {
    "id": 107,
    "name": "Tobin Hall",
    "latitude": "-72.53023",
    "longitude": "42.390404",
    "address": "135 HICKS WAY, AMHERST, MA 01003"
  },
  {
    "id": 108,
    "name": "Toddler House",
    "latitude": "-72.534214",
    "longitude": "42.381374",
    "address": "21 CLUBHOUSE DR, AMHERST, MA 01003"
  },
  {
    "id": 109,
    "name": "Totman Bldg",
    "latitude": "-72.526289",
    "longitude": "42.39552",
    "address": "30 EASTMAN LN, AMHERST, MA 01003"
  },
  {
    "id": 110,
    "name": "University Bus Garage",
    "latitude": "-72.533861",
    "longitude": "42.395186",
    "address": "255 GOVERNORS DR, AMHERST, MA 01003"
  },
  {
    "id": 111,
    "name": "University Press",
    "latitude": "-72.525553",
    "longitude": "42.39239",
    "address": "671 N PLEASANT ST, AMHERST, MA 01003"
  },
  {
    "id": 112,
    "name": "University Store",
    "latitude": "-72.532499",
    "longitude": "42.39033",
    "address": "1 CAMPUS CENTER WAY OFC, AMHERST, MA 01003"
  },
  {
    "id": 113,
    "name": "W.E.B. Du Bois Library",
    "latitude": "-72.530416",
    "longitude": "42.390227",
    "address": "154 HICKS WAY, AMHERST, MA 01003"
  },
  {
    "id": 114,
    "name": "West Experiment Station",
    "latitude": "-72.52567",
    "longitude": "42.392763",
    "address": "682 N PLEASANT ST, AMHERST, MA 01003"
  },
  {
    "id": 115,
    "name": "Whitmore Bldg",
    "latitude": "-72.526054",
    "longitude": "42.386106",
    "address": "181 PRESIDENTS DR, AMHERST, MA 01003"
  },
  {
    "id": 116,
    "name": "Wilder Hall",
    "latitude": "-72.523383",
    "longitude": "42.389773",
    "address": "221 STOCKBRIDGE RD, AMHERST, MA 01003"
  },
  {
    "id": 117,
    "name": "Worcester Dining Commons",
    "latitude": "-72.52553",
    "longitude": "42.392316",
    "address": "669 N PLEASANT ST, AMHERST, MA 01003"
  },
  {
    "id": 118,
    "name": "Wysocki House",
    "latitude": "-72.527954",
    "longitude": "42.400984",
    "address": "911 N PLEASANT ST, AMHERST, MA 01003"
  },
  {
    "id": 119,
    "name": "Baker Hall",
    "latitude": "-72.519304",
    "longitude": "42.388893",
    "address": "160 CLARK HILL RD, AMHERST, MA 01003"
  },
  {
    "id": 120,
    "name": "Birch Hall",
    "latitude": "-72.532776",
    "longitude": "42.390077",
    "address": "153 COMMONWEALTH AVE, AMHERST, MA 01003"
  },
  {
    "id": 121,
    "name": "Brett Hall",
    "latitude": "-72.521006",
    "longitude": "42.388897",
    "address": "151 INFIRMARY WAY, AMHERST, MA 01003"
  },
  {
    "id": 122,
    "name": "Brooks Hall",
    "latitude": "-72.520991",
    "longitude": "42.388798",
    "address": "160 INFIRMARY WAY, AMHERST, MA 01003"
  },
  {
    "id": 123,
    "name": "Brown Hall",
    "latitude": "-72.520164",
    "longitude": "42.397267",
    "address": "92 EASTMAN LN, AMHERST, MA 01003"
  },
  {
    "id": 124,
    "name": "Butterfield Hall",
    "latitude": "-72.519016",
    "longitude": "42.388996",
    "address": "171 CLARK HILL RD, AMHERST, MA 01003"
  },
  {
    "id": 125,
    "name": "Cance Hall",
    "latitude": "-72.529198",
    "longitude": "42.381031",
    "address": "191 FEARING ST, AMHERST, MA 01003"
  },
  {
    "id": 126,
    "name": "Cashin Hall",
    "latitude": "-72.519276",
    "longitude": "42.397374",
    "address": "112 EASTMAN LN, AMHERST, MA 01003"
  },
  {
    "id": 127,
    "name": "Chadbourne Hall",
    "latitude": "-72.519043",
    "longitude": "42.389927",
    "address": "110 ORCHARD HILL DR, AMHERST, MA 01003"
  },
  {
    "id": 128,
    "name": "Coolidge Hall",
    "latitude": "-72.529382",
    "longitude": "42.384793",
    "address": "630 MASSACHUSETTS AVE, AMHERST, MA 01003"
  },
  {
    "id": 129,
    "name": "Crabtree Hall",
    "latitude": "-72.526558",
    "longitude": "42.395438",
    "address": "17 EASTMAN LN, AMHERST, MA 01003"
  },
  {
    "id": 130,
    "name": "Crampton Hall",
    "latitude": "-72.528288",
    "longitude": "42.382693",
    "address": "256 SUNSET AVE, AMHERST, MA 01003"
  },
  {
    "id": 131,
    "name": "Dickinson Hall",
    "latitude": "-72.519599",
    "longitude": "42.392498",
    "address": "151 ORCHARD HILL DR, AMHERST, MA 01003"
  },
  {
    "id": 132,
    "name": "Dwight Hall",
    "latitude": "-72.525208",
    "longitude": "42.395769",
    "address": "41 EASTMAN LN, AMHERST, MA 01003"
  },
  {
    "id": 133,
    "name": "Elm Hall",
    "latitude": "-72.532485",
    "longitude": "42.389381",
    "address": "145 COMMONWEALTH AVE, AMHERST, MA 01003"
  },
  {
    "id": 134,
    "name": "Emerson Hall",
    "latitude": "-72.530571",
    "longitude": "42.383097",
    "address": "151 SOUTHWEST CIR, AMHERST, MA 01003"
  },
  {
    "id": 135,
    "name": "Field Hall",
    "latitude": "-72.518328",
    "longitude": "42.392768",
    "address": "171 ORCHARD HILL DR, AMHERST, MA 01003"
  },
  {
    "id": 136,
    "name": "Gorman Hall",
    "latitude": "-72.520688",
    "longitude": "42.387543",
    "address": "90 BUTTERFIELD TER, AMHERST, MA 01003"
  },
  {
    "id": 137,
    "name": "Grayson Hall",
    "latitude": "-72.519061",
    "longitude": "42.392624",
    "address": "161 ORCHARD HILL DR, AMHERST, MA 01003"
  },
  {
    "id": 138,
    "name": "Greenough Hall",
    "latitude": "-72.519649",
    "longitude": "42.39059",
    "address": "120 ORCHARD HILL DR, AMHERST, MA 01003"
  },
  {
    "id": 139,
    "name": "Hamlin Hall",
    "latitude": "-72.526689",
    "longitude": "42.39507",
    "address": "739 N PLEASANT ST, AMHERST, MA 01003"
  },
  {
    "id": 140,
    "name": "James Hall",
    "latitude": "-72.530068",
    "longitude": "42.38496",
    "address": "660 MASSACHUSETTS AVE, AMHERST, MA 01003"
  },
  {
    "id": 141,
    "name": "John Adams Hall",
    "latitude": "-72.527969",
    "longitude": "42.38136",
    "address": "161 FEARING ST, AMHERST, MA 01003"
  },
  {
    "id": 142,
    "name": "John Quincy Adams Hall",
    "latitude": "-72.528379",
    "longitude": "42.38125",
    "address": "171 FEARING ST, AMHERST, MA 01003"
  },
  {
    "id": 143,
    "name": "Johnson Hall",
    "latitude": "-72.52365",
    "longitude": "42.3936",
    "address": "380 THATCHER RD, AMHERST, MA 01003"
  },
  {
    "id": 144,
    "name": "Kennedy Hall",
    "latitude": "-72.529147",
    "longitude": "42.384757",
    "address": "620 MASSACHUSETTS AVE, AMHERST, MA 01003"
  },
  {
    "id": 145,
    "name": "Knowlton Hall",
    "latitude": "-72.525814",
    "longitude": "42.393131",
    "address": "691 N PLEASANT ST, AMHERST, MA 01003"
  },
  {
    "id": 146,
    "name": "Leach Hall",
    "latitude": "-72.526468",
    "longitude": "42.395465",
    "address": "21 EASTMAN LN, AMHERST, MA 01003"
  },
  {
    "id": 147,
    "name": "Lewis Hall",
    "latitude": "-72.52365",
    "longitude": "42.3936",
    "address": "340 THATCHER RD, AMHERST, MA 01003"
  },
  {
    "id": 148,
    "name": "Lincoln Apts",
    "latitude": "-72.526606",
    "longitude": "42.383729",
    "address": "345 LINCOLN AVE, AMHERST, MA 01002"
  },
  {
    "id": 149,
    "name": "Linden Hall",
    "latitude": "-72.532338",
    "longitude": "42.389022",
    "address": "141 COMMONWEALTH AVE, AMHERST, MA 01003"
  },
  {
    "id": 150,
    "name": "Mackimmie Hall",
    "latitude": "-72.528146",
    "longitude": "42.3821",
    "address": "230 SUNSET AVE, AMHERST, MA 01003"
  },
  {
    "id": 151,
    "name": "Maple Hall",
    "latitude": "-72.532669",
    "longitude": "42.389832",
    "address": "151 COMMONWEALTH AVE, AMHERST, MA 01003"
  },
  {
    "id": 152,
    "name": "Mary Lyon Hall",
    "latitude": "-72.525018",
    "longitude": "42.39583",
    "address": "43 EASTMAN LN, AMHERST, MA 01003"
  },
  {
    "id": 153,
    "name": "McNamara Hall",
    "latitude": "-72.519718",
    "longitude": "42.397313",
    "address": "102 EASTMAN LN, AMHERST, MA 01003"
  },
  {
    "id": 154,
    "name": "Melville Hall",
    "latitude": "-72.529838",
    "longitude": "42.384908",
    "address": "650 MASSACHUSETTS AVE, AMHERST, MA 01003"
  },
  {
    "id": 155,
    "name": "Moore Hall",
    "latitude": "-72.530219",
    "longitude": "42.38251",
    "address": "111 SOUTHWEST CIR, AMHERST, MA 01003"
  },
  {
    "id": 156,
    "name": "North Residence A",
    "latitude": "-72.523665",
    "longitude": "42.396403",
    "address": "56 EASTMAN LN, AMHERST, MA 01003"
  },
  {
    "id": 157,
    "name": "North Residence B",
    "latitude": "-72.523365",
    "longitude": "42.39665",
    "address": "58 EASTMAN LN, AMHERST, MA 01003"
  },
  {
    "id": 158,
    "name": "North Residence C",
    "latitude": "-72.524012",
    "longitude": "42.396193",
    "address": "54 EASTMAN LN, AMHERST, MA 01003"
  },
  {
    "id": 159,
    "name": "North Residence D",
    "latitude": "-72.524409",
    "longitude": "42.39604",
    "address": "52 EASTMAN LN, AMHERST, MA 01003"
  },
  {
    "id": 160,
    "name": "North Village Apts. (family housing)",
    "latitude": "-72.52925",
    "longitude": "42.40345",
    "address": "990 N PLEASANT ST, AMHERST, MA 01002"
  },
  {
    "id": 161,
    "name": "Oak Hall",
    "latitude": "-72.532412",
    "longitude": "42.389201",
    "address": "143 COMMONWEALTH AVE, AMHERST, MA 01003"
  },
  {
    "id": 162,
    "name": "Patterson Hall",
    "latitude": "-72.527993",
    "longitude": "42.38146",
    "address": "204 SUNSET AVE, AMHERST, MA 01003"
  },
  {
    "id": 163,
    "name": "Pierpont Hall",
    "latitude": "-72.529529",
    "longitude": "42.38094",
    "address": "201 FEARING ST, AMHERST, MA 01003"
  },
  {
    "id": 164,
    "name": "Prince Hall",
    "latitude": "-72.528617",
    "longitude": "42.383845",
    "address": "286 SUNSET AVE, AMHERST, MA 01003"
  },
  {
    "id": 165,
    "name": "Sycamore Hall",
    "latitude": "-72.532929",
    "longitude": "42.390424",
    "address": "159 COMMONWEALTH AVE, AMHERST, MA 01003"
  },
  {
    "id": 166,
    "name": "Thatcher Hall",
    "latitude": "-72.52365",
    "longitude": "42.3936",
    "address": "300 THATCHER RD, AMHERST, MA 01003"
  },
  {
    "id": 167,
    "name": "Thoreau Hall",
    "latitude": "-72.52961",
    "longitude": "42.384851",
    "address": "640 MASSACHUSETTS AVE, AMHERST, MA 01003"
  },
  {
    "id": 168,
    "name": "Van Meter Hall",
    "latitude": "-72.518781",
    "longitude": "42.389081",
    "address": "180 CLARK HILL RD, AMHERST, MA 01003"
  },
  {
    "id": 169,
    "name": "Washington Hall",
    "latitude": "-72.528788",
    "longitude": "42.38114",
    "address": "181 FEARING ST, AMHERST, MA 01003"
  },
  {
    "id": 170,
    "name": "Webster Hall",
    "latitude": "-72.520155",
    "longitude": "42.392037",
    "address": "141 ORCHARD HILL DR, AMHERST, MA 01003"
  },
  {
    "id": 171,
    "name": "Wheeler Hall",
    "latitude": "-72.52097",
    "longitude": "42.388678",
    "address": "171 INFIRMARY WAY, AMHERST, MA 01003"
  }
]
